City,Cloudiness,Country,Date,Humidity,Lat,Lng,Max Temp,Wind Speed
Busselton,66,AU,1569041453,30,-33.64,115.35,19.44,7.11
Goundam,79,ML,1569041788,47,16.42,-3.66,31.4,8.39
Bali,22,CN,1569041788,54,32.29,119.4,27.22,1.34
Provideniya,43,RU,1569041773,67,64.42,-173.23,0.4,1.72
Smithers,40,CA,1569041788,87,54.78,-127.17,11.0,1.0
Victoria,75,BN,1569041472,66,5.28,115.24,31.0,1.0
Port Blair,70,IN,1569041458,80,11.67,92.75,27.6,6.62
East London,0,ZA,1569041469,72,-33.02,27.91,16.0,2.6
Bluff,42,AU,1569041476,29,-23.58,149.07,28.0,4.64
Khatanga,97,RU,1569041452,75,71.98,102.47,9.3,5.9
Tiksi,95,RU,1569041475,89,71.64,128.87,3.6,3.66
Cabo San Lucas,100,MX,1569041326,88,22.89,-109.91,27.78,3.58
Saldanha,89,PT,1569041789,70,41.42,-6.55,16.8,2.08
Mandera,16,ET,1569041790,58,3.94,41.86,30.56,0.45
Butaritari,38,KI,1569041461,62,3.07,172.79,29.4,4.0
Toppenish,1,US,1569041790,76,46.38,-120.31,18.0,1.76
Hobart,75,AU,1569041165,60,-42.88,147.33,21.11,7.7
Ushuaia,90,AR,1569041458,92,-54.81,-68.31,-1.0,13.9
Thompson,90,CA,1569041630,93,55.74,-97.86,15.0,2.6
Sao Joao da Barra,35,BR,1569041617,93,-21.64,-41.05,20.8,0.46
Jamestown,38,AU,1569041380,44,-33.21,138.6,13.1,6.97
Siniscola,20,IT,1569041791,93,40.57,9.69,19.0,0.5
Geraldton,40,CA,1569041791,93,49.72,-86.95,14.0,1.5
Vaini,40,IN,1569041468,73,15.34,74.49,27.0,5.1
Rota,40,ES,1569041791,88,36.62,-6.36,20.0,0.5
Puerto Ayora,30,EC,1569041456,84,-0.74,-90.35,18.89,3.58
Quatre Cocos,40,MU,1569041792,64,-20.21,57.76,23.33,4.6
Albany,20,US,1569041451,82,42.65,-73.75,15.0,2.1
Calcinato,0,IT,1569041792,81,45.46,10.41,12.0,1.5
Ocampo,68,MX,1569041792,85,27.32,-102.4,20.3,1.99
Mar del Plata,0,AR,1569041404,44,-46.43,-67.52,4.9,9.97
Hermanus,74,ZA,1569041455,92,-34.42,19.24,12.78,2.68
Husavik,100,CA,1569041793,96,50.56,-96.99,18.33,4.02
Georgetown,40,GY,1569041353,100,6.8,-58.16,24.0,2.1
Hithadhoo,73,MV,1569041246,72,-0.6,73.08,27.7,4.43
Anadyr,40,RU,1569041453,55,64.73,177.51,4.0,5.0
Udachnyy,90,RU,1569041793,100,66.42,112.4,2.0,5.0
Port Macquarie,40,AU,1569041793,60,-31.43,152.91,24.0,9.3
Ribas do Rio Pardo,21,BR,1569041794,91,-20.45,-53.76,22.2,3.83
Port Lincoln,18,AU,1569041794,61,-34.72,135.86,11.5,8.24
Norman Wells,75,CA,1569041465,58,65.28,-126.83,13.0,7.7
Orange Cove,1,US,1569041794,63,36.62,-119.31,24.0,0.94
Kapaa,75,US,1569041234,66,22.08,-159.32,29.0,3.6
Saint-Philippe,1,CA,1569041459,93,45.36,-73.48,18.33,2.75
Koubia,49,GN,1569041795,97,11.59,-11.89,18.9,0.28
Awbari,0,LY,1569041795,23,26.59,12.77,25.0,5.05
Tessaoua,0,NE,1569041795,58,13.76,7.99,27.6,3.92
Souillac,0,FR,1569041674,77,45.6,-0.6,19.0,4.1
Eatonton,1,US,1569041796,72,33.33,-83.39,21.67,1.4
Karoi,30,ZW,1569041796,25,-16.82,29.68,21.7,4.64
Port Elizabeth,1,US,1569041456,87,39.31,-74.98,18.33,2.1
Lavrentiya,90,RU,1569041624,85,65.58,-170.99,-0.91,3.16
Wakkanai,40,JP,1569041796,59,45.41,141.67,18.0,2.1
Mahebourg,40,MU,1569041450,64,-20.41,57.7,23.33,4.6
Rikitea,74,PF,1569041451,89,-23.12,-134.97,23.4,6.52
Salalah,20,OM,1569041797,78,17.01,54.1,27.0,1.0
Nikolskoye,20,RU,1569041460,80,59.7,30.79,5.56,4.0
Rocha,0,UY,1569041666,62,-34.48,-54.34,8.5,5.6
Changde,32,CN,1569041797,43,29.04,111.68,28.6,7.64
Upernavik,100,GL,1569041468,63,72.79,-56.15,3.2,2.31
Guangyuan,44,CN,1569041798,49,32.43,105.86,27.22,1.53
Kodiak,90,US,1569041798,94,39.95,-94.76,22.22,5.1
Chuy,0,UY,1569041159,75,-33.69,-53.46,8.4,4.71
Sinnamary,100,GF,1569041798,83,5.38,-52.96,26.9,4.64
Camacari,20,BR,1569041798,69,-12.7,-38.32,25.0,4.6
Port Alfred,0,ZA,1569041450,87,-33.59,26.89,16.67,0.45
Haines Junction,100,CA,1569041799,96,60.75,-137.51,4.6,4.02
Faanui,100,PF,1569041457,85,-16.48,-151.75,25.8,7.56
Ayagoz,72,KZ,1569041799,30,47.96,80.43,22.9,7.03
Xuanhua,10,CN,1569041800,28,40.61,115.04,23.1,1.15
Kokkola,75,FI,1569041800,100,63.84,23.13,6.11,0.5
Ishigaki,75,JP,1569041800,100,24.34,124.16,24.0,11.3
Ponta do Sol,44,BR,1569041633,40,-20.63,-46.0,20.3,0.95
Alekseyevka,40,RU,1569041800,93,53.25,50.49,7.0,1.0
Sao Filipe,97,CV,1569041746,83,14.9,-24.5,26.6,4.85
Kyabe,74,TD,1569041801,93,9.45,18.94,22.9,0.72
Fort Wellington,35,GY,1569041801,87,6.4,-57.6,25.2,1.43
Damara,20,CF,1569041801,94,4.96,18.7,23.0,0.87
Kimbe,97,PG,1569041801,88,-5.56,150.15,26.8,0.13
Castro,90,CL,1569041475,93,-42.48,-73.76,7.0,2.1
Lagoa,75,PT,1569041802,88,37.14,-8.45,21.11,3.6
Laizhou,95,CN,1569041802,64,37.18,119.93,22.2,7.88
Bredasdorp,4,ZA,1569041456,93,-34.53,20.04,8.0,2.1
Vanimo,69,PG,1569041838,69,-2.67,141.3,28.3,2.42
Labe,86,NG,1569041838,91,7.7,8.47,22.6,1.42
Conchas,100,BR,1569041839,82,-23.02,-48.01,23.89,3.57
Charters Towers,0,AU,1569041839,31,-20.07,146.27,28.9,6.48
Moyale,46,ET,1569041839,60,3.52,39.05,22.0,6.22
Saint-Francois,0,FR,1569041839,81,46.42,3.91,11.0,1.5
Ribeira Grande,76,PT,1569041839,69,38.52,-28.7,20.5,9.71
Manoel Urbano,44,BR,1569041840,89,-8.84,-69.26,22.6,0.75
Sarai Sidhu,0,PK,1569041840,62,30.59,71.97,32.0,3.1
Cape Town,20,ZA,1569041353,82,-33.93,18.42,15.0,3.6
Menongue,42,AO,1569041840,18,-14.66,17.68,16.9,1.52
Mataura,6,NZ,1569041455,75,-46.19,168.86,12.22,4.92
Hasaki,75,JP,1569041454,64,35.73,140.83,24.0,4.1
Atuona,5,PF,1569041443,75,-9.8,-139.03,27.2,7.65
Fare,81,PF,1569041841,85,-16.7,-151.02,25.3,7.98
Simdega,0,IN,1569041841,60,22.61,84.51,30.8,2.16
Hami,2,CN,1569041475,13,42.84,93.51,28.5,2.23
Bambous Virieux,40,MU,1569041841,64,-20.34,57.76,23.33,4.6
Oriximina,50,BR,1569041842,60,-1.77,-55.87,27.9,2.61
Caala,37,AO,1569041842,51,-12.85,15.56,17.4,0.58
Saint George,75,GR,1569041842,82,39.45,22.34,17.0,2.1
Miri,0,NG,1569041842,78,10.31,9.75,21.4,1.51
Kongwa,23,TZ,1569041842,57,-6.19,36.41,21.4,4.04
Sur,19,OM,1569041842,30,22.57,59.53,34.8,0.39
Moose Factory,1,CA,1569041843,81,51.26,-80.61,11.0,3.6
Ust-Kuyga,0,RU,1569041843,57,70.0,135.55,6.8,2.62
Vao,100,EE,1569041843,96,59.1,26.19,6.4,2.73
Mezhdurechensk,68,RU,1569041844,46,53.69,88.07,15.3,3.73
Buribay,100,RU,1569041844,88,51.96,58.16,7.0,2.92
Rudarpur,40,IN,1569041844,89,26.64,83.25,31.0,1.5
Kaitangata,4,NZ,1569041467,70,-46.28,169.85,11.67,2.68
Nuuk,100,GL,1569041844,70,64.17,-51.74,6.0,18.0
Naze,73,NG,1569041845,94,5.43,7.07,23.5,1.48
New Norfolk,75,AU,1569041608,60,-42.78,147.06,20.56,7.7
Mogadishu,75,SO,1569041845,74,2.04,45.34,26.0,7.2
Matagami,49,NG,1569041845,94,9.67,8.4,20.1,1.08
Immokalee,75,US,1569041845,78,26.42,-81.42,25.0,4.6
Karratha,0,AU,1569041846,7,-20.74,116.85,30.0,5.51
Lokosovo,99,RU,1569041846,89,61.13,74.84,4.6,6.03
Ust-Maya,100,RU,1569041846,66,60.42,134.54,5.8,1.38
Pakxan,76,LA,1569041846,41,18.39,103.66,32.7,1.29
Hilo,1,US,1569041468,69,19.71,-155.08,28.0,2.1
Nerchinskiy Zavod,57,RU,1569041846,42,51.31,119.61,17.8,3.54
Punta Arenas,40,CL,1569041455,80,-53.16,-70.91,1.0,10.3
Richards Bay,37,ZA,1569041847,92,-28.77,32.06,21.4,7.96
Ivybridge,20,GB,1569041847,72,50.39,-3.92,17.22,7.7
Manta,73,RO,1569041847,47,45.1,24.1,9.2,1.37
Luleburgaz,20,TR,1569041848,66,41.4,27.36,13.0,4.6
Dalvik,0,SE,1569041848,93,57.79,14.13,12.22,2.6
Yellowknife,40,CA,1569041474,87,62.45,-114.38,8.0,2.6
Tarboro,1,US,1569041848,100,35.9,-77.54,15.56,1.75
Itarema,10,BR,1569041753,81,-2.92,-39.92,23.4,3.68
Longyearbyen,100,NO,1569041470,76,78.22,15.63,-2.31,2.87
Saskylakh,73,RU,1569041465,64,71.97,114.09,4.4,12.25
Bowen,40,AU,1569041849,54,-20.01,148.25,26.11,7.7
Ca Mau,64,VN,1569041777,75,9.18,105.15,29.8,3.74
Port Hedland,0,AU,1569041849,8,-20.31,118.58,29.0,6.7
Fort Nelson,90,CA,1569041849,54,58.81,-122.69,15.0,3.1
Bethel,1,US,1569041462,74,60.79,-161.76,8.0,5.1
Avarua,88,CK,1569041347,60,-21.21,-159.78,23.0,4.1
Puerto Quijarro,26,BO,1569041850,60,-19.0,-57.72,21.5,3.95
Sao Felix do Xingu,8,BR,1569041643,67,-6.64,-51.99,24.5,0.65
Fairbanks,75,US,1569041797,93,64.84,-147.72,10.0,1.5
Inuvik,75,CA,1569041850,75,68.36,-133.71,8.0,3.6
Nebolchi,66,RU,1569041850,83,59.12,33.35,3.8,2.37
Aykhal,90,RU,1569041851,100,65.95,111.51,2.0,5.0
Najran,0,SA,1569041851,26,17.54,44.22,22.0,3.1
Novoagansk,72,RU,1569041851,69,61.94,76.66,6.8,7.56
Belyy Yar,40,RU,1569041851,71,53.6,91.39,13.0,3.0
Yenagoa,48,NG,1569041851,93,4.92,6.26,24.3,1.08
Kavieng,28,PG,1569041454,68,-2.57,150.8,29.1,2.77
Salihli,13,TR,1569041852,10,38.48,28.15,21.11,0.67
Poya,28,NC,1569041852,74,-21.35,165.16,21.8,12.97
Esna,36,RO,1569041852,49,45.2,27.57,10.7,2.97
Samarai,100,PG,1569041852,93,-10.62,150.67,24.1,3.3
Hofn,100,IS,1569041853,99,64.25,-15.21,3.7,1.79
Bhag,0,PK,1569041853,16,29.04,67.82,37.3,1.55
Grand Gaube,40,MU,1569041853,64,-20.01,57.66,23.33,4.6
Sitka,16,US,1569041776,81,37.17,-99.65,22.78,5.36
Vila do Maio,93,CV,1569041854,91,15.13,-23.22,25.1,2.84
Hanna,0,CA,1569041854,87,51.64,-111.93,5.56,2.68
Hamilton,75,CA,1569041705,68,43.26,-79.87,19.44,1.0
Redcar,0,GB,1569041854,93,54.62,-1.06,13.89,0.5
Synya,58,RU,1569041854,75,65.37,58.04,3.2,4.0
Taoudenni,5,ML,1569041855,10,22.68,-3.98,33.0,3.25
Okha,58,RU,1569041855,65,53.59,142.95,13.8,5.47
San Patricio,31,PY,1569041855,70,-26.98,-56.83,10.4,3.57
Ilulissat,100,GL,1569041451,86,69.22,-51.1,4.0,2.1
Pampa,1,US,1569041855,88,35.54,-100.96,22.0,7.7
Unterseen,0,CH,1569041856,100,46.69,7.85,10.0,1.0
Ostrovnoy,79,RU,1569041856,93,68.05,39.51,2.7,4.71
Fethiye,0,TR,1569041856,50,36.62,29.12,24.0,7.7
Bermejo,100,AR,1569041856,42,-22.73,-64.34,8.8,0.97
Beringovskiy,27,RU,1569041857,68,63.05,179.32,1.1,4.59
Gazli,0,UZ,1569041857,13,40.13,63.45,31.3,3.18
Lompoc,1,US,1569041857,72,34.64,-120.46,18.89,6.29
Dikson,100,RU,1569041461,88,73.51,80.55,2.7,12.28
Seoul,75,KR,1569041857,72,37.57,126.98,22.0,1.5
Dunedin,0,NZ,1569041463,77,-45.87,170.5,11.11,4.47
Kirakira,100,SB,1569041858,84,-10.46,161.92,26.3,5.71
Luderitz,8,NA,1569041453,77,-26.65,15.16,15.0,3.6
Elko,1,US,1569041599,75,40.83,-115.76,8.0,1.5
Vanavara,78,RU,1569041858,65,60.35,102.28,11.2,6.29
Cidreira,0,BR,1569041859,66,-30.17,-50.22,11.3,2.17
Tarnogskiy Gorodok,42,RU,1569041859,90,60.5,43.58,2.7,2.77
Alzamay,91,RU,1569041859,56,55.55,98.67,16.7,3.93
Goderich,0,CA,1569041859,87,43.74,-81.71,19.44,1.34
Namibe,88,AO,1569041552,82,-15.19,12.15,18.0,2.84
Imeni Poliny Osipenko,69,RU,1569041859,59,52.42,136.49,15.2,3.08
Deniliquin,57,AU,1569041860,59,-35.53,144.96,15.56,7.6
Atasu,87,KZ,1569041860,22,48.68,71.64,18.8,3.32
Ulverstone,100,AU,1569041860,87,-41.16,146.17,13.89,7.15
Abha,0,SA,1569041860,20,18.22,42.5,20.0,6.93
Pacific Grove,1,US,1569041820,63,36.62,-121.92,20.0,1.47
Bandarbeyla,57,SO,1569041861,46,9.49,50.81,30.5,11.86
Broome,0,GB,1569041456,87,52.47,1.45,15.56,3.1
Lebu,90,ET,1569041471,93,8.96,38.73,15.0,1.2
Homer,1,US,1569041812,81,59.64,-151.54,11.0,6.2
Carnarvon,12,ZA,1569041600,34,-30.97,22.13,19.4,4.49
Buala,96,SB,1569041861,79,-8.15,159.59,27.5,5.37
Derzhavinsk,93,KZ,1569041862,37,51.1,66.31,17.1,5.07
Bathsheba,40,BB,1569041458,83,13.22,-59.52,28.0,9.8
Mount Gambier,75,AU,1569041862,93,-37.83,140.78,11.0,4.1
Oxilithos,20,GR,1569041862,59,38.58,24.12,20.0,9.3
Coquimbo,0,CL,1569041862,87,-29.95,-71.34,11.0,2.1
Walcz,75,PL,1569041764,93,53.28,16.47,11.11,0.89
Meulaboh,44,ID,1569041450,74,4.14,96.13,28.4,4.31
Sabha,0,LY,1569041863,25,27.03,14.43,24.9,3.51
Torbay,90,CA,1569041863,100,47.66,-52.73,12.78,1.5
Azul,0,AR,1569041864,39,-36.78,-59.86,9.44,0.45
Santa Isabel,1,MX,1569041864,14,32.63,-115.58,27.0,3.1
Domna,29,RU,1569041864,39,51.9,113.16,18.0,1.0
Superior,90,US,1569041864,93,47.19,-114.89,12.0,2.1
Guozhen,0,CN,1569041864,35,29.3,113.14,27.6,9.15
Iqaluit,90,CA,1569041470,69,63.75,-68.52,4.0,10.3
Qaanaaq,0,GL,1569041865,37,77.48,-69.36,-7.51,2.57
Adrar,0,DZ,1569041865,20,27.87,-0.29,29.0,2.6
Falam,40,MM,1569041865,44,22.91,93.68,29.4,0.82
Tuktoyaktuk,75,CA,1569041472,87,69.44,-133.03,6.0,6.2
Genhe,77,CN,1569041866,49,50.78,121.52,14.7,4.57
Progreso,0,UY,1569041866,68,-34.68,-56.22,12.22,3.1
Manokwari,47,ID,1569041866,71,-0.87,134.08,26.9,3.16
Klaksvik,0,FO,1569041866,81,62.23,-6.59,12.0,4.1
Arman,58,RU,1569041866,68,59.7,150.17,8.1,2.17
Banda Aceh,44,ID,1569041867,78,5.56,95.32,28.3,7.28
Nome,1,US,1569041867,88,30.04,-94.42,28.89,2.1
Salinas,1,US,1569041824,63,36.67,-121.66,20.56,1.41
Manicore,4,BR,1569041867,56,-5.81,-61.3,26.1,0.31
Igarka,100,RU,1569041867,92,67.47,86.57,5.0,11.29
Biak,24,ID,1569041471,86,-0.91,122.88,22.3,0.82
Englehart,1,CA,1569041868,100,47.82,-79.87,14.0,2.1
Poum,0,MK,1569041868,56,41.28,20.71,7.0,4.1
Umm Lajj,0,SA,1569041868,69,25.02,37.27,29.7,6.14
Tommot,95,RU,1569041868,81,58.97,126.27,6.3,2.74
Sal Rei,100,CV,1569041869,87,16.18,-22.92,25.7,6.98
Palmer,20,AU,1569041669,54,-34.85,139.16,15.0,7.2
Pangnirtung,100,CA,1569041449,99,66.15,-65.72,-0.01,0.74
Siloam Springs,75,US,1569041779,88,36.19,-94.54,23.33,5.7
Chkalovsk,40,RU,1569041869,100,56.76,43.24,2.0,1.0
Matara,20,BI,1569041869,68,-3.48,29.48,20.0,1.0
Hirara,75,JP,1569041870,94,24.8,125.28,27.0,13.4
Alofi,29,NU,1569041701,69,-19.06,-169.92,23.0,5.7
Hambantota,75,LK,1569041553,94,6.12,81.12,28.0,4.6
Bambari,97,CF,1569041870,93,5.77,20.68,22.3,0.74
Ulaangom,33,MN,1569041870,25,49.98,92.07,23.0,2.83
Kapuskasing,5,CA,1569041871,100,49.42,-82.43,10.0,3.1
Laguna,20,BZ,1569041469,94,16.17,-88.94,25.0,0.7
Manitouwadge,14,CA,1569041871,99,49.12,-85.84,13.5,2.27
Salto,0,BR,1569041871,82,-23.2,-47.29,23.89,2.6
Saint-Georges,39,CA,1569041871,91,46.12,-70.67,16.11,2.5
Tungor,58,RU,1569041871,65,53.39,142.95,13.8,5.47
Cururupu,57,BR,1569041872,85,-1.82,-44.87,24.6,1.98
Srednekolymsk,0,RU,1569041872,43,67.46,153.71,3.8,3.97
Xucheng,2,CN,1569041872,54,33.0,118.51,25.9,8.19
Vostok,100,RU,1569041553,98,46.45,135.83,6.8,1.1
Zhigansk,0,RU,1569041702,53,66.77,123.37,6.2,8.95
Minas,0,UY,1569041872,57,-34.38,-55.24,9.0,3.6
Mnogovershinnyy,97,RU,1569041873,58,53.94,139.92,12.4,3.96
Kurumkan,89,RU,1569041873,52,54.33,110.32,13.4,2.08
Skibbereen,20,IE,1569041873,87,51.55,-9.27,15.0,7.7
Calama,0,CL,1569041873,14,-22.46,-68.93,7.78,8.2
Promyshlennaya,0,RU,1569041874,47,54.92,85.64,15.0,7.0
Gitarama,72,RW,1569041874,82,-2.07,29.76,16.67,1.34
Alta Floresta,49,BR,1569041874,40,-9.87,-56.08,24.6,0.42
Tucurui,16,BR,1569041846,93,-3.77,-49.67,23.3,1.71
Pevek,100,RU,1569041874,85,69.7,170.27,0.4,7.82
Ngunguru,10,NZ,1569041875,68,-35.62,174.5,15.56,1.34
Arraial do Cabo,43,BR,1569041455,93,-22.97,-42.02,21.6,6.62
Melilla,75,EC,1569041875,83,-0.8,-80.23,23.0,2.6
Mujiayingzi,0,CN,1569041875,33,42.12,118.78,19.9,2.69
Pisco,64,PE,1569041467,87,-13.71,-76.2,16.67,5.1
Tessalit,0,ML,1569041875,11,20.2,1.01,29.7,3.74
Byron Bay,40,AU,1569041876,69,-28.65,153.62,25.0,5.7
Nuevo Progreso,40,US,1569041876,83,26.05,-97.95,29.44,3.1
Waipawa,5,NZ,1569041876,62,-39.94,176.59,14.44,1.56
Corinto,75,CO,1569041876,93,3.17,-76.26,19.0,1.13
Inirida,5,CO,1569041876,93,3.87,-67.92,23.8,1.36
Irun,0,FR,1569041766,57,43.34,-1.79,24.0,5.1
Hualmay,100,PE,1569041877,91,-11.1,-77.61,15.8,6.26
Buchanan,75,LR,1569041877,94,5.88,-10.05,25.0,7.56
Jinka,100,ET,1569041877,73,5.79,36.57,19.2,0.95
Alice Springs,0,AU,1569041877,24,-23.7,133.88,19.0,5.7
Mutare,0,MZ,1569041878,42,-18.97,32.67,21.1,0.95
Barrow,0,AR,1569041454,31,-38.31,-60.23,9.3,6.7
Saint-Leu,90,RE,1569041878,77,-21.15,55.28,23.0,4.1
Saint-Joseph,0,FR,1569041683,82,43.56,6.97,21.11,2.6
Ancud,90,CL,1569041469,93,-41.87,-73.83,7.0,2.1
Zambezi,52,ZM,1569041637,33,-13.55,23.12,22.7,5.63
Sydney Mines,20,CA,1569041878,81,46.24,-60.22,16.67,4.1
Cherskiy,100,RU,1569041473,68,68.75,161.3,0.5,3.88
Mengcheng,0,CN,1569041879,31,33.26,116.57,27.6,6.36
Broken Hill,40,AU,1569041879,39,-31.97,141.45,17.0,6.7
Salamiyah,0,SY,1569041879,52,35.01,37.05,23.5,5.9
Lima,90,PE,1569041879,87,-12.06,-77.04,16.0,4.6
Chany,1,RU,1569041880,58,55.31,76.76,13.3,4.43
Isla Mujeres,40,MX,1569041880,88,21.23,-86.73,26.0,1.0
Pascagoula,1,US,1569041880,100,30.37,-88.56,24.0,1.73
Tunceli,0,TR,1569041880,39,39.11,39.55,18.0,5.1
Hede,32,SE,1569041880,81,60.45,15.49,10.0,5.1
Uruacu,15,BR,1569041881,33,-14.52,-49.14,25.1,2.7
Luebo,98,CD,1569041881,92,-5.35,21.42,22.4,0.49
Sao Sebastiao,0,BR,1569041881,47,-3.15,-58.36,26.9,1.32
Atar,58,MR,1569041881,30,20.52,-13.05,33.8,4.12
Salisbury,0,GB,1569041881,81,51.07,-1.8,15.56,6.2
Airai,0,TL,1569041882,49,-8.93,125.41,28.4,2.87
Moorhead,1,US,1569041882,65,46.87,-96.75,26.0,6.2
Sokoni,44,CD,1569041882,63,-12.89,28.78,17.22,1.34
Boppard,0,DE,1569041823,57,50.23,7.59,11.0,4.1
Ternate,90,PH,1569041883,74,14.29,120.72,30.56,5.1
Boquira,0,BR,1569041588,58,-12.82,-42.73,19.3,1.44
Labuhan,23,ID,1569041883,39,-2.54,115.51,35.3,1.61
Nanortalik,100,GL,1569041554,87,60.14,-45.24,3.7,2.8
Vynohradove,0,UA,1569041883,81,46.37,32.94,6.0,5.0
Mecca,11,SA,1569041883,15,21.43,39.83,37.8,0.35
Emba,20,CY,1569041884,64,34.81,32.42,21.0,2.1
The Valley,40,AI,1569041856,79,18.22,-63.06,29.0,2.1
Bosobolo,85,CD,1569041884,91,4.19,19.88,22.6,0.47
Lucapa,38,AO,1569041884,70,-8.42,20.74,23.0,2.07
Katherine,40,AU,1569041885,28,-14.47,132.26,34.0,5.1
Kamaishi,75,JP,1569041885,64,39.28,141.86,21.0,2.1
Arlit,0,NE,1569041885,11,18.74,7.39,30.5,4.75
Port Hardy,75,CA,1569041885,93,50.7,-127.42,13.0,1.0
Palu,0,ID,1569041885,62,-0.9,119.87,29.7,2.52
Sergeyevka,89,KZ,1569041886,54,53.88,67.42,13.4,3.41
Shache,0,CN,1569041886,14,38.42,77.24,26.8,1.62
College,75,US,1569041886,93,64.86,-147.8,10.0,1.5
Peshkopi,0,AL,1569041886,56,41.68,20.43,9.0,4.1
Panaba,2,MX,1569041886,86,21.28,-88.27,25.6,3.71
Erenhot,0,CN,1569041887,29,43.65,111.97,20.1,0.99
Maragogi,2,BR,1569041718,96,-9.01,-35.22,20.3,1.53
Pinczow,96,PL,1569041887,81,50.52,20.53,10.0,1.34
Aksu,0,KZ,1569041463,54,52.04,76.93,13.0,1.73
Ziro,40,IN,1569041887,62,27.54,93.82,32.0,2.6
Jumla,2,NP,1569041888,37,29.28,82.18,20.4,2.56
Amos,90,CA,1569041888,93,48.57,-78.12,15.0,2.1
Qaqortoq,75,GL,1569041622,89,60.72,-46.03,4.0,2.1
Manosque,75,FR,1569041888,77,43.83,5.78,21.11,2.6
Aden,93,YE,1569041608,66,12.79,45.03,31.7,5.4
Muroto,75,JP,1569041888,61,33.37,134.14,26.0,2.1
Pirogovskiy,90,RU,1569041889,100,55.98,37.73,4.0,3.0
Aurillac,20,FR,1569041889,77,44.93,2.44,18.89,7.7
Kailua,20,US,1569041889,69,21.39,-157.74,29.0,5.7
Luangwa,17,MZ,1569041889,46,-15.62,30.4,23.4,4.07
Uromi,95,NG,1569041889,96,6.71,6.33,22.1,0.56
Axim,69,GH,1569041890,90,4.87,-2.24,24.2,2.43
Leningradskiy,100,RU,1569041890,96,69.38,178.42,0.6,8.21
Khani,90,GE,1569041890,100,41.96,42.96,16.0,7.2
San Quintin,74,PH,1569041890,65,17.54,120.52,27.7,3.15
Gizo,20,IL,1569041890,78,31.8,34.94,23.89,2.1
Vancouver,20,CA,1569041788,93,49.26,-123.12,15.0,1.38
Sola,33,TZ,1569041891,41,-3.17,33.8,24.6,4.18
Gat,20,SN,1569041891,88,14.69,-16.54,24.0,2.6
Qasigiannguit,100,GL,1569041891,86,68.82,-51.19,4.0,2.1
Merauke,41,ID,1569041891,83,-8.49,140.4,25.3,11.64
Hirado,100,JP,1569041892,83,33.32,129.49,28.0,4.1
Tuatapere,0,NZ,1569041892,75,-46.13,167.69,12.22,4.92
La Macarena,100,CO,1569041892,98,2.18,-73.79,20.9,1.3
Lata,9,IN,1569041892,68,30.78,78.62,8.3,3.94
Pringsewu,40,ID,1569041892,56,-5.36,104.98,29.3,3.92
Dolinsk,40,RU,1569041893,67,47.32,142.8,16.0,5.0
Guerrero Negro,0,MX,1569041893,79,27.97,-114.04,20.1,6.47
Cockburn Town,79,TC,1569041893,78,21.46,-71.14,28.6,11.58
Bloomingdale,1,US,1569041834,83,41.96,-88.08,24.44,1.5
Murom,99,RU,1569041893,88,55.57,42.04,5.7,2.19
Isangel,40,VU,1569041894,54,-19.55,169.27,26.0,5.1
Sibolga,61,ID,1569041643,83,1.74,98.78,27.7,7.43
Esperance,40,AU,1569041455,93,-33.86,121.89,12.0,3.1
Touros,90,BR,1569041553,94,-5.2,-35.46,23.0,2.1
Kruisfontein,0,ZA,1569041664,71,-34.0,24.73,16.0,3.67
Gravdal,90,NO,1569041894,93,59.79,5.78,8.89,4.1
Brockville,1,CA,1569041894,87,44.59,-75.69,17.22,2.1
Camapua,24,BR,1569041895,76,-19.53,-54.04,22.5,2.91
Nova Granada,40,BR,1569041895,65,-20.53,-49.32,26.0,1.0
Petropavlovsk-Kamchatskiy,42,RU,1569041895,58,53.05,158.65,14.0,5.0
Rosario,0,UY,1569041895,57,-34.31,-57.35,8.89,1.79
Yulara,0,AU,1569041896,22,-25.24,130.99,18.0,5.7
Urengoy,100,RU,1569041694,71,65.96,78.37,4.6,10.67
Shaunavon,70,CA,1569041896,67,49.65,-108.41,12.4,5.2
La Roda,75,ES,1569041896,100,39.21,-2.16,17.78,1.0
Shush,5,RU,1569041896,53,55.6,89.45,14.3,7.57
Barreirinha,0,BR,1569041897,49,-2.8,-57.07,26.8,1.67
Alyangula,1,AU,1569041897,52,-13.85,136.42,31.0,6.7
Codrington,40,AU,1569041897,60,-28.95,153.24,27.0,6.7
Tazmalt,40,DZ,1569041897,50,36.39,4.4,26.0,6.2
Kayankulam,30,IN,1569041898,79,9.18,76.5,27.6,2.25
Santa Luzia,17,BR,1569041898,56,-19.77,-43.85,23.0,3.6
Port Hawkesbury,1,CA,1569041898,77,45.62,-61.36,17.78,6.2
Huesca,90,ES,1569041898,93,42.14,-0.41,18.33,2.6
Oxbow,1,CA,1569041898,87,49.23,-102.17,15.56,3.6
Lac du Bonnet,100,CA,1569041899,96,50.25,-96.06,17.78,5.36
Lasa,20,CY,1569041899,64,34.92,32.53,21.0,2.1
Biloela,52,AU,1569041899,34,-24.4,150.51,25.9,7.17
Watsa,99,CD,1569041899,92,3.04,29.53,21.0,0.3
Turukhansk,100,RU,1569041900,88,65.8,87.96,6.0,11.22
Sangar,42,RU,1569041900,63,63.92,127.47,6.4,4.45
Khasan,0,RU,1569041900,41,42.43,130.64,21.7,3.98
Ifakara,84,TZ,1569041900,49,-8.13,36.68,25.8,1.38
Praya,75,ID,1569041901,58,-8.71,116.27,29.0,5.7
Porto Velho,2,BR,1569041901,83,-8.75,-63.87,26.0,0.22
Longhua,47,CN,1569041901,51,29.21,106.21,26.7,1.93
Hetauda,75,NP,1569041901,65,27.43,85.03,25.0,2.1
Qandala,26,SO,1569041902,60,11.47,49.87,31.6,3.88
Oksfjord,98,NO,1569041902,93,70.24,22.35,4.0,2.1
Vila Franca do Campo,20,PT,1569041780,63,37.72,-25.43,21.67,4.6
Thinadhoo,100,MV,1569041902,78,0.53,72.93,26.7,4.96
Valparaiso,1,US,1569041836,100,41.47,-87.06,24.44,2.81
Sinjar,0,SY,1569041903,51,35.59,37.0,22.7,3.58
Chifeng,3,CN,1569041903,35,42.27,118.96,19.5,1.46
Yuli,100,CN,1569041903,75,24.82,106.77,20.2,1.9
Pergine Valsugana,2,IT,1569041903,90,46.06,11.24,10.0,0.89
Kedrovyy,0,RU,1569041904,44,56.17,91.82,15.0,7.0
Barcelos,31,BR,1569041904,72,-0.97,-62.93,26.8,0.85
Kahului,40,US,1569041904,65,20.89,-156.47,28.0,7.7
Tecuala,100,MX,1569041904,80,22.4,-105.46,25.6,1.53
Antofagasta,90,CL,1569041904,87,-23.65,-70.4,13.0,4.6
Kupang,0,ID,1569041904,75,-10.16,123.6,25.1,3.48
Eureka,90,US,1569041786,87,40.8,-124.16,15.56,2.6
Mitchell,75,US,1569041905,73,43.71,-98.03,24.0,6.7
Hagere Hiywet,90,ET,1569041905,90,8.98,37.85,15.9,1.71
Jepara,47,ID,1569041906,42,-5.21,105.74,33.5,5.05
Yanam,40,IN,1569041906,62,16.73,82.22,31.0,2.95
Honningsvag,100,NO,1569041474,95,70.98,25.97,2.8,1.55
Tumpat,75,MY,1569041906,70,6.2,102.17,31.0,2.1
Penzance,0,GB,1569041906,77,50.12,-5.53,16.67,8.7
Gao,24,ML,1569041907,43,16.28,-0.04,30.4,3.58
Morondava,0,MG,1569041907,83,-20.3,44.28,24.4,5.63
Katsuura,75,JP,1569041452,69,33.93,134.5,26.11,2.1
Pandan,98,PH,1569041907,79,11.72,122.09,28.2,8.37
Mount Isa,0,AU,1569041467,21,-20.73,139.49,28.0,4.6
Turbat,0,PK,1569041907,19,26.0,63.05,35.5,2.36
Kutum,64,SD,1569041908,38,14.2,24.66,26.8,4.68
Kangalassy,0,RU,1569041908,65,62.35,129.97,5.0,2.0
Kamina,10,CD,1569041908,64,-8.74,25.0,23.9,2.44
Dingle,100,PH,1569041908,69,11.0,122.67,29.6,5.76
Calgary,75,CA,1569041870,71,51.05,-114.06,10.0,2.1
Mega,75,ET,1569041909,53,4.06,38.32,23.1,10.66
Trelew,74,AR,1569041643,54,-43.25,-65.31,8.3,7.93
Sorong,96,ID,1569041909,77,-0.86,131.25,26.8,3.11
Cabalitian,100,PH,1569041909,74,16.09,120.79,28.2,6.35
Neepawa,90,CA,1569041910,93,50.23,-99.46,18.0,3.1
Yar-Sale,89,RU,1569041752,58,66.83,70.83,5.2,9.65
Lodwar,100,KE,1569041910,46,3.12,35.6,27.0,7.95
Port Augusta,54,AU,1569041910,71,-32.49,137.76,14.44,2.1
Marondera,0,ZW,1569041910,76,-18.19,31.55,10.0,3.6
Muros,75,ES,1569041911,93,42.77,-9.06,19.44,2.6
Mukhen,100,RU,1569041911,65,48.19,136.14,14.3,2.24
Toora-Khem,82,RU,1569041911,45,52.47,96.11,18.8,2.23
Malmesbury,0,GB,1569041912,71,51.58,-2.1,13.33,7.2
Portobelo,40,PA,1569041912,94,9.55,-79.65,26.0,2.6
Centerville,1,US,1569041912,93,40.92,-111.87,11.11,3.72
Las Cruces,0,CL,1569041912,66,-33.5,-71.62,10.0,11.53
Nara,40,JP,1569041912,78,34.68,135.8,26.11,5.1
Codajas,0,BR,1569041913,58,-3.84,-62.06,25.4,0.44
Inhambane,20,MZ,1569041913,93,-23.87,35.38,17.0,2.99
Vardo,1,US,1569041913,93,39.62,-77.74,16.0,0.95
Road Town,1,VG,1569041913,83,18.42,-64.62,28.33,2.08
Ingham,36,AU,1569041913,58,-18.65,146.16,24.3,3.89
Onguday,44,RU,1569041914,37,50.75,86.14,19.3,0.67
Batemans Bay,100,AU,1569041914,75,-35.71,150.18,18.33,6.71
Bulungu,100,CD,1569041914,83,-4.54,18.6,23.0,2.55
Villarrica,20,CL,1569041914,100,-39.28,-72.23,5.0,1.5
Boundiali,93,CI,1569041914,95,9.53,-6.48,21.5,2.55
Zyryanka,94,RU,1569041915,44,65.73,150.89,5.7,0.77
Huarmey,100,PE,1569041915,92,-10.07,-78.15,15.6,6.73
Sorland,100,NO,1569041915,71,67.67,12.69,7.5,7.21
Ocean City,1,US,1569041916,83,30.44,-86.61,25.0,1.5
Hovd,75,NO,1569041449,81,63.83,10.7,12.78,10.3
Havre,90,US,1569041916,55,48.55,-109.68,16.0,4.1
Kavaratti,20,IN,1569041916,70,10.57,72.64,30.0,2.1
Baturaja,2,ID,1569041916,25,-4.12,104.17,36.0,2.55
Chernihiv,35,UA,1569041917,77,51.49,31.29,5.0,4.04
Neuquen,0,AR,1569041780,37,-38.95,-68.06,10.0,2.6
Armidale,100,AU,1569041917,25,-30.51,151.67,20.56,1.79
Karachi,0,PK,1569041832,43,24.87,67.03,33.0,2.6
Jinchang,0,CN,1569041917,20,38.52,102.19,18.5,3.41
Bonthe,100,SL,1569041917,95,7.53,-12.5,23.7,2.77
Ola,13,RU,1569041918,75,59.58,151.3,8.6,4.57
Marsa Matruh,40,EG,1569041918,83,31.35,27.25,23.0,2.6
Bowmore,0,US,1569041918,93,34.94,-79.3,17.22,1.25
Henties Bay,97,NA,1569041667,93,-22.12,14.28,14.44,0.89
Paungde,55,MM,1569041918,67,18.49,95.51,31.5,0.35
Naron,0,ES,1569041919,82,43.52,-8.15,20.0,3.6
Piedras Negras,1,MX,1569041919,55,28.7,-100.52,31.0,7.7
Tasiilaq,36,GL,1569041466,80,65.61,-37.64,2.0,1.5
Zhigalovo,64,RU,1569041919,48,54.81,105.15,20.5,3.22
Nioro,100,GM,1569041919,96,13.79,-15.05,24.1,1.65
Aswan,0,EG,1569041920,42,24.09,32.9,28.0,3.6
Faya,0,SA,1569041920,14,18.39,42.45,20.0,1.38
Eleousa,40,GR,1569041920,49,39.15,20.96,21.0,6.7
Ahipara,0,NZ,1569041465,74,-35.17,173.16,14.4,5.28
Adet,100,ET,1569041921,81,11.26,37.49,18.9,1.63
Caravelas,29,BR,1569041471,84,-17.73,-39.27,22.5,3.99
Cuamba,0,MZ,1569041921,45,-14.8,36.54,25.9,0.51
Tankhoy,0,RU,1569041921,59,51.55,105.12,17.3,2.32
Khobi,90,GE,1569041921,100,42.32,41.9,16.0,7.2
Mikuni,75,JP,1569041921,82,36.22,136.15,20.0,2.1
Kaseda,75,JP,1569041922,69,31.42,130.32,28.0,6.2
Magadan,17,RU,1569041922,78,59.56,150.8,8.3,1.64
Pangai,40,TO,1569041922,64,-19.8,-174.35,24.0,4.1
Lethem,10,GY,1569041922,67,3.38,-59.8,27.2,4.43
Namatanai,36,PG,1569041922,76,-3.66,152.44,27.1,0.73
Dunmore Town,87,BS,1569041923,76,25.5,-76.65,27.8,10.5
Terney,88,RU,1569041923,83,45.05,136.61,13.2,1.35
Tromso,75,NO,1569041923,86,69.65,18.96,3.0,10.8
Nantucket,1,US,1569041923,88,41.28,-70.1,18.33,5.1
Santa Cruz,14,BR,1569041923,85,-6.22,-36.02,20.7,7.38
Clyde River,90,CA,1569041658,100,70.47,-68.59,2.0,9.8
Seymchan,26,RU,1569041924,55,62.93,152.39,5.4,2.27
Havelock,20,US,1569041924,82,34.88,-76.9,19.0,0.49
Banjar,82,ID,1569041924,59,-7.37,108.54,26.7,3.69
Muriwai Beach,0,NZ,1569041924,72,-36.82,174.45,15.56,6.2
Chokurdakh,0,RU,1569041449,55,70.62,147.9,2.2,3.12
Ibra,19,OM,1569041925,18,22.69,58.55,33.6,1.16
Charlestown,1,US,1569041925,93,41.38,-71.64,18.0,1.5
Nata,18,BW,1569041925,40,-20.21,26.19,19.2,5.6
Altayskoye,88,RU,1569041925,32,51.95,85.34,18.7,2.23
Mitu,0,IR,1569041926,16,36.2,46.09,28.6,7.29
Daru,83,PG,1569041926,77,-9.07,143.21,25.9,5.48
Grindavik,90,IS,1569041926,100,63.84,-22.43,12.0,11.8
Kaeo,82,NZ,1569041926,80,-35.1,173.78,16.11,0.81
Belyy,16,RU,1569041926,82,55.83,32.94,3.2,2.56
Puteyets,42,RU,1569041927,69,65.17,57.09,3.6,3.82
Yuksekova,20,TR,1569041927,43,37.57,44.29,21.0,5.7
Baruun-Urt,0,MN,1569041927,33,46.68,113.28,20.1,5.7
Hengshui,0,CN,1569041927,28,37.73,115.7,29.7,3.82
Saint Anthony,90,US,1569041927,93,43.97,-111.68,8.0,3.6
Carolina,40,PR,1569041928,94,18.38,-65.96,26.67,2.6
Constitucion,100,MX,1569041694,76,23.99,-104.67,17.78,1.79
Talaya,20,RU,1569041928,58,55.79,84.89,12.22,6.0
Amazar,87,RU,1569041928,54,53.86,120.88,15.1,3.13
Pero Pinheiro,75,PT,1569041928,88,38.86,-9.32,20.56,3.6
Nador,40,MA,1569041651,88,35.17,-2.93,23.0,2.6
Terrak,100,NO,1569041929,93,65.09,12.37,10.56,4.1
Lorengau,96,PG,1569041459,77,-2.02,147.27,27.8,2.41
Santona,20,ES,1569041929,82,43.44,-3.46,22.0,3.6
Talnakh,75,RU,1569041553,93,69.49,88.39,7.0,5.0
Khanpur,0,PK,1569041929,24,28.65,70.66,38.9,4.04
Porkhov,100,RU,1569041929,93,57.77,29.55,5.0,2.0
North Miami Beach,90,US,1569041930,65,25.93,-80.16,28.0,7.7
Shambu,98,ET,1569041930,92,9.57,37.1,16.7,1.33
Loa Janan,44,ID,1569041824,45,-0.58,117.09,33.7,2.07
Severo-Kurilsk,76,RU,1569041462,89,50.68,156.12,9.4,8.44
Carmen,75,PH,1569041930,66,7.36,125.71,33.89,4.1
Ambanja,3,MG,1569041931,71,-13.68,48.45,23.9,2.76
Parana,83,BR,1569041931,98,-7.52,-72.89,22.8,1.48
Manggar,35,ID,1569041931,47,-2.88,108.27,32.1,4.14
Akdagmadeni,99,TR,1569041931,87,39.66,35.88,9.3,4.18
Port Keats,7,AU,1569041932,52,-14.25,129.55,29.2,5.89
Fortuna,75,ES,1569041932,83,38.18,-1.13,23.0,2.6
Shitanjing,0,CN,1569041932,22,39.23,106.34,22.1,1.1
Oradea,0,RO,1569041932,80,47.06,21.93,4.0,3.6
Northam,75,AU,1569041933,48,-31.65,116.67,17.0,2.6
Fort Morgan,1,US,1569041933,37,40.25,-103.8,20.0,8.2
Susanville,1,US,1569041933,58,40.42,-120.65,12.0,0.81
Nicoya,75,CR,1569041933,94,10.15,-85.45,24.0,1.0
Sioux Lookout,40,CA,1569041919,93,50.1,-91.92,19.0,6.2
Apen,12,DE,1569041934,100,53.22,7.81,8.89,0.5
Las Guaranas,75,DO,1569041934,88,19.19,-70.21,26.0,3.1
Buraydah,0,SA,1569041934,41,26.33,43.97,25.0,1.5
Sobreira,75,PT,1569041934,88,41.15,-8.39,19.44,7.2
Beloha,8,MG,1569041452,61,-25.17,45.06,22.8,6.6
Umea,100,SE,1569041935,93,63.83,20.26,3.0,2.6
Alexandria,39,RO,1569041685,78,43.97,25.33,7.78,3.36
Bilma,0,NE,1569041935,14,18.69,12.92,28.8,4.85
Nishihara,75,JP,1569041935,69,35.74,139.53,26.11,4.6
Puerto Escondido,20,MX,1569041468,91,15.86,-97.07,24.1,2.08
Nicolas de Pierola,90,PE,1569041936,87,-11.95,-76.7,16.0,4.6
